[
	{
		"TimeGenerated": "4/30/2024, 4:01:17.340 PM",
		"city":"Parepare",
		"country":"ID",
		"country_name":"Indonesia",
		"geoname_id":"1632353",
		"latitude":"-4.0135",
		"longitude":"119.6255",
		"postal_code":"",
		"radius":"20",
		"range":"1.0.0.255/32",
		"region":"SN",
		"region_name":"South Sulawesi",
		"timezone":"Asia/Makassar",
		"Type": "Ipinfo_Location_extended_CL"
	},
	{
		"TimeGenerated": "4/30/2024, 4:01:17.341 PM",
		"city":"Xiamen",
		"country":"CN",
		"country_name":"China",
		"geoname_id":"1790645",
		"latitude":"24.47979",
		"longitude":"118.08187",
		"postal_code":"",
		"radius":"1000",
		"range":"1.0.1.0/24",
		"region":"FJ",
		"region_name":"Fujian",
		"timezone":"Asia/Shanghai",
		"Type": "Ipinfo_Location_extended_CL"
	},
	{
		"TimeGenerated": "4/30/2024, 4:01:17.342 PM",
		"city":"Xiamen",
		"country":"CN",
		"country_name":"China",
		"geoname_id":"1790645",
		"latitude":"24.47979",
		"longitude":"118.08187",
		"postal_code":"",
		"radius":"1000",
		"range":"1.0.2.0/23",
		"region":"FJ",
		"region_name":"Fujian",
		"timezone":"Asia/Shanghai",
		"Type": "Ipinfo_Location_extended_CL"
	},
	{
		"TimeGenerated": "4/30/2024, 4:01:17.343 PM",
		"city":"Frankston East",
		"country":"AU",
		"country_name":"Australia",
		"geoname_id":"2166143",
		"latitude":"-38.03357",
		"longitude":"145.305",
		"postal_code":"3805",
		"radius":"1000",
		"range":"1.0.4.0/22",
		"region":"VIC",
		"region_name":"Victoria",
		"timezone":"Australia/Melbourne",
		"Type": "Ipinfo_Location_extended_CL"
	},
	{
		"TimeGenerated": "4/30/2024, 4:01:17.344 PM",
		"city":"Shenzhen",
		"country":"CN",
		"country_name":"China",
		"geoname_id":"1795565",
		"latitude":"22.54554",
		"longitude":"114.0683",
		"postal_code":"",
		"radius":"1000",
		"range":"1.0.8.0/21",
		"region":"GD",
		"region_name":"Guangdong",
		"timezone":"Asia/Shanghai",
		"Type": "Ipinfo_Location_extended_CL"
	},
	{
		"TimeGenerated": "4/30/2024, 4:01:17.345 PM",
		"city":"Tokyo",
		"country":"JP",
		"country_name":"Japan",
		"geoname_id":"1850147",
		"latitude":"35.6895",
		"longitude":"139.69171",
		"postal_code":"101-8656",
		"radius":"5000",
		"range":"1.0.16.0/29",
		"region":"13",
		"region_name":"Tokyo",
		"timezone":"Asia/Tokyo",
		"Type": "Ipinfo_Location_extended_CL"
	}
]